[ { "Name":"kanchanpur", "lat":"28.83333", "long":"80.33333", "tag": "health", "type": "humanitarian", "d":{ "Rescued people": 1, "Rescued people percentage":100 } },
{ "Name":"palpa", "lat":"27.75", "long":"83.83333", "tag": "health", "type": "humanitarian", "d":{ "Rescued people": 2, "Rescued people percentage":33 } },
{ "Name":"sankhuwasabha", "lat":"27.58333", "long":"87.33333", "tag": "health", "type": "humanitarian", "d":{ "Rescued people": 1, "Rescued people percentage":50 } },
{ "Name":"rupandehi", "lat":"27.66667", "long":"83.41667", "tag": "health", "type": "humanitarian", "d":{ "Rescued people": 0, "Rescued people percentage": 0 } },
{ "Name":"lamjung", "lat":"28.48914", "long":"84.1884", "tag": "health", "type": "humanitarian", "d":{ "Rescued people": 25, "Rescued people percentage":11 } },
{ "Name":"arghakhanchi", "lat":"27.91667", "long":"83.08333", "tag": "health", "type": "humanitarian", "d":{ "Rescued people": 1, "Rescued people percentage":50 } },
{ "Name":"makwanpur", "lat":"27.41667", "long":"85.25", "tag": "health", "type": "humanitarian", "d":{ "Rescued people": 0, "Rescued people percentage": 0 } },
{ "Name":"bara", "lat":"26.75", "long":"81", "tag": "health", "type": "humanitarian", "d":{ "Rescued people": 0, "Rescued people percentage": 0 } },
{ "Name":"dhankuta", "lat":"26.98333", "long":"87.33333", "tag": "health", "type": "humanitarian", "d":{ "Rescued people": 1, "Rescued people percentage":33 } },
{ "Name":"parsa", "lat":"34.92466", "long":"68.64761", "tag": "health", "type": "humanitarian", "d":{ "Rescued people": 0, "Rescued people percentage": 0 } },
{ "Name":"sindhuli", "lat":"27.2799", "long":"85.98421", "tag": "health", "type": "humanitarian", "d":{ "Rescued people": 59, "Rescued people percentage":25 } },
{ "Name":"makawanpur", "lat":"27.41429", "long":"85.17962", "tag": "health", "type": "humanitarian", "d":{ "Rescued people": 45, "Rescued people percentage":25 } },
{ "Name":"morang", "lat":"-37.65", "long":"145.1", "tag": "health", "type": "humanitarian", "d":{ "Rescued people": 0, "Rescued people percentage": 0 } },
{ "Name":"sarlahi", "lat":"27", "long":"85.58333", "tag": "health", "type": "humanitarian", "d":{ "Rescued people": 0, "Rescued people percentage": 0 } },
{ "Name":"kaski", "lat":"28.33333", "long":"84", "tag": "health", "type": "humanitarian", "d":{ "Rescued people": 8, "Rescued people percentage":35 } },
{ "Name":"chitawan", "lat":"27.68333", "long":"84.43333", "tag": "health", "type": "humanitarian", "d":{ "Rescued people": 2, "Rescued people percentage":20 } },
{ "Name":"baglung", "lat":"28.27189", "long":"83.58976", "tag": "health", "type": "humanitarian", "d":{ "Rescued people": 2, "Rescued people percentage": 9 } },
{ "Name":"panchthar", "lat":"27.16667", "long":"87.83333", "tag": "health", "type": "humanitarian", "d":{ "Rescued people": 1, "Rescued people percentage": 5 } },
{ "Name":"kabhrepalanchok", "lat":"0", "long":"0", "tag": "health", "type": "humanitarian", "d":{ "Rescued people": 207, "Rescued people percentage":34 } },
{ "Name":"khotang", "lat":"27.25", "long":"86.83333", "tag": "health", "type": "humanitarian", "d":{ "Rescued people": 67, "Rescued people percentage":49 } },
{ "Name":"dang", "lat":"31.0699", "long":"120.87635", "tag": "health", "type": "humanitarian", "d":{ "Rescued people": 0, "Rescued people percentage": 0 } },
{ "Name":"okhaldhunga", "lat":"27.31032", "long":"86.50502", "tag": "health", "type": "humanitarian", "d":{ "Rescued people": 94, "Rescued people percentage":47 } },
{ "Name":"gorkha", "lat":"28.00242", "long":"84.62009", "tag": "health", "type": "humanitarian", "d":{ "Rescued people": 157, "Rescued people percentage":19 } },
{ "Name":"baitadi", "lat":"29.57113", "long":"80.43722", "tag": "health", "type": "humanitarian", "d":{ "Rescued people": 0, "Rescued people percentage": 0 } },
{ "Name":"taplejung", "lat":"27.35", "long":"87.66667", "tag": "health", "type": "humanitarian", "d":{ "Rescued people": 27, "Rescued people percentage":93 } },
{ "Name":"sindhupalchowk", "lat":"0", "long":"0", "tag": "health", "type": "humanitarian", "d":{ "Rescued people": 0, "Rescued people percentage": 0 } },
{ "Name":"kavrepalanchok", "lat":"27.58333", "long":"85.66667", "tag": "health", "type": "humanitarian", "d":{ "Rescued people": 0, "Rescued people percentage": 0 } },
{ "Name":"ilam", "lat":"33.6374", "long":"46.4227", "tag": "health", "type": "humanitarian", "d":{ "Rescued people": 0, "Rescued people percentage": 0 } },
{ "Name":"mustang", "lat":"29.18321", "long":"83.95634", "tag": "health", "type": "humanitarian", "d":{ "Rescued people": 2, "Rescued people percentage":67 } },
{ "Name":"lalitpur", "lat":"27.67658", "long":"85.31417", "tag": "health", "type": "humanitarian", "d":{ "Rescued people": 71, "Rescued people percentage":18 } },
{ "Name":"solukhumbu", "lat":"27.75", "long":"86.75", "tag": "health", "type": "humanitarian", "d":{ "Rescued people": 66, "Rescued people percentage":42 } },
{ "Name":"sunsari", "lat":"26.66667", "long":"87.16667", "tag": "health", "type": "humanitarian", "d":{ "Rescued people": 2, "Rescued people percentage":67 } },
{ "Name":"bhojpur", "lat":"25.30886", "long":"84.44504", "tag": "health", "type": "humanitarian", "d":{ "Rescued people": 2, "Rescued people percentage":29 } },
{ "Name":"rasuwa", "lat":"27.08617", "long":"86.42758", "tag": "health", "type": "humanitarian", "d":{ "Rescued people": 180, "Rescued people percentage":36 } },
{ "Name":"parbat", "lat":"35.23731", "long":"74.58914", "tag": "health", "type": "humanitarian", "d":{ "Rescued people": 8, "Rescued people percentage":53 } },
{ "Name":"gulmi", "lat":"28.06941", "long":"83.24536", "tag": "health", "type": "humanitarian", "d":{ "Rescued people": 2, "Rescued people percentage":40 } },
{ "Name":"nawalparasi", "lat":"27.66667", "long":"83.91667", "tag": "health", "type": "humanitarian", "d":{ "Rescued people": 7, "Rescued people percentage":25 } },
{ "Name":"tbd", "lat":"33.22661", "long":"69.77123", "tag": "health", "type": "humanitarian", "d":{ "Rescued people": 2, "Rescued people percentage":100 } },
{ "Name":"jhapa", "lat":"22.57314", "long":"89.39283", "tag": "health", "type": "humanitarian", "d":{ "Rescued people": 0, "Rescued people percentage": 0 } },
{ "Name":"siraha", "lat":"26.65411", "long":"86.2087", "tag": "health", "type": "humanitarian", "d":{ "Rescued people": 1, "Rescued people percentage":100 } },
{ "Name":"dolakha", "lat":"27.68027", "long":"86.0701", "tag": "health", "type": "humanitarian", "d":{ "Rescued people": 153, "Rescued people percentage":23 } },
{ "Name":"dhading", "lat":"27.86424", "long":"84.9283", "tag": "health", "type": "humanitarian", "d":{ "Rescued people": 126, "Rescued people percentage":24 } },
{ "Name":"sindhupalchok", "lat":"27.82936", "long":"85.54504", "tag": "health", "type": "humanitarian", "d":{ "Rescued people": 369, "Rescued people percentage":26 } },
{ "Name":"bhaktapur", "lat":"27.67298", "long":"85.43005", "tag": "health", "type": "humanitarian", "d":{ "Rescued people": 28, "Rescued people percentage":19 } },
{ "Name":"ramechhap", "lat":"27.32207", "long":"86.05913", "tag": "health", "type": "humanitarian", "d":{ "Rescued people": 90, "Rescued people percentage":28 } },
{ "Name":"syangja", "lat":"28.09596", "long":"83.87243", "tag": "health", "type": "humanitarian", "d":{ "Rescued people": 7, "Rescued people percentage":58 } },
{ "Name":"tanahu", "lat":"27.91667", "long":"84.25", "tag": "health", "type": "humanitarian", "d":{ "Rescued people": 7, "Rescued people percentage":39 } },
{ "Name":"nuwakot", "lat":"28", "long":"83.83333", "tag": "health", "type": "humanitarian", "d":{ "Rescued people": 118, "Rescued people percentage":31 } },
{ "Name":"udayapur", "lat":"26.94167", "long":"86.52031", "tag": "health", "type": "humanitarian", "d":{ "Rescued people": 6, "Rescued people percentage":40 } },
{ "Name":"kathmandu", "lat":"27.70169", "long":"85.3206", "tag": "health", "type": "humanitarian", "d":{ "Rescued people": 90, "Rescued people percentage":23 } },
{ "Name":"myagdi", "lat":"28.58333", "long":"83.33333", "tag": "health", "type": "humanitarian", "d":{ "Rescued people": 1, "Rescued people percentage":25 } } ]